{
"type": "FeatureCollection",
"name": "Neighborhood_Names-BK",
"crs": { "type": "name", "properties": { "name": "urn:ogc:def:crs:OGC:1.3:CRS84" } },
"features": [
{ "type": "Feature", "properties": { "FID": 41, "Name": "Ditmas Park", "Stacked": 2, "AnnoLine1": "Ditmas", "AnnoLine2": "Park", "AnnoLine3": " ", "AnnoAngle": 0, "Borough": "Brooklyn" }, "geometry": { "type": "Point", "coordinates": [ -73.961014554598705, 40.643683427758901 ] } },
{ "type": "Feature", "properties": { "FID": 43, "Name": "Wingate", "Stacked": 1, "AnnoLine1": "Wingate", "AnnoLine2": " ", "AnnoLine3": " ", "AnnoAngle": 0, "Borough": "Brooklyn" }, "geometry": { "type": "Point", "coordinates": [ -73.937188228937799, 40.660954810522398 ] } },
{ "type": "Feature", "properties": { "FID": 45, "Name": "Rugby", "Stacked": 1, "AnnoLine1": "Rugby", "AnnoLine2": " ", "AnnoLine3": " ", "AnnoAngle": 0, "Borough": "Brooklyn" }, "geometry": { "type": "Point", "coordinates": [ -73.926883545891499, 40.655580561226998 ] } },
{ "type": "Feature", "properties": { "FID": 78, "Name": "Bay Ridge", "Stacked": 1, "AnnoLine1": "Bay Ridge", "AnnoLine2": " ", "AnnoLine3": " ", "AnnoAngle": 0, "Borough": "Brooklyn" }, "geometry": { "type": "Point", "coordinates": [ -74.030622144665202, 40.625809303482498 ] } },
{ "type": "Feature", "properties": { "FID": 79, "Name": "Bensonhurst", "Stacked": 1, "AnnoLine1": "Bensonhurst", "AnnoLine2": " ", "AnnoLine3": " ", "AnnoAngle": 0, "Borough": "Brooklyn" }, "geometry": { "type": "Point", "coordinates": [ -73.995181422703794, 40.611017138827698 ] } },
{ "type": "Feature", "properties": { "FID": 80, "Name": "Sunset Park", "Stacked": 2, "AnnoLine1": "Sunset", "AnnoLine2": "Park", "AnnoLine3": " ", "AnnoAngle": 0, "Borough": "Brooklyn" }, "geometry": { "type": "Point", "coordinates": [ -74.010317631073605, 40.645111192227098 ] } },
{ "type": "Feature", "properties": { "FID": 81, "Name": "Greenpoint", "Stacked": 1, "AnnoLine1": "Greenpoint", "AnnoLine2": " ", "AnnoLine3": " ", "AnnoAngle": 0, "Borough": "Brooklyn" }, "geometry": { "type": "Point", "coordinates": [ -73.9542423642621, 40.730209246489999 ] } },
{ "type": "Feature", "properties": { "FID": 82, "Name": "Gravesend", "Stacked": 1, "AnnoLine1": "Gravesend", "AnnoLine2": " ", "AnnoLine3": " ", "AnnoAngle": 0, "Borough": "Brooklyn" }, "geometry": { "type": "Point", "coordinates": [ -73.973472308087693, 40.595268247537199 ] } },
{ "type": "Feature", "properties": { "FID": 83, "Name": "Brighton Beach", "Stacked": 2, "AnnoLine1": "Brighton", "AnnoLine2": "Beach", "AnnoLine3": " ", "AnnoAngle": 0, "Borough": "Brooklyn" }, "geometry": { "type": "Point", "coordinates": [ -73.965095915069298, 40.576833296805198 ] } },
{ "type": "Feature", "properties": { "FID": 84, "Name": "Sheepshead Bay", "Stacked": 2, "AnnoLine1": "Sheepshead", "AnnoLine2": "Bay", "AnnoLine3": " ", "AnnoAngle": 0, "Borough": "Brooklyn" }, "geometry": { "type": "Point", "coordinates": [ -73.943187825641004, 40.586898360666801 ] } },
{ "type": "Feature", "properties": { "FID": 85, "Name": "Manhattan Terrace", "Stacked": 2, "AnnoLine1": "Manhattan", "AnnoLine2": "Terrace", "AnnoLine3": " ", "AnnoAngle": 0, "Borough": "Brooklyn" }, "geometry": { "type": "Point", "coordinates": [ -73.957439832625795, 40.614440752150202 ] } },
{ "type": "Feature", "properties": { "FID": 86, "Name": "Flatbush", "Stacked": 1, "AnnoLine1": "Flatbush", "AnnoLine2": " ", "AnnoLine3": " ", "AnnoAngle": 0, "Borough": "Brooklyn" }, "geometry": { "type": "Point", "coordinates": [ -73.958402493991201, 40.636334133332902 ] } },
{ "type": "Feature", "properties": { "FID": 88, "Name": "Crown Heights", "Stacked": 2, "AnnoLine1": "Crown", "AnnoLine2": "Heights", "AnnoLine3": " ", "AnnoAngle": 0, "Borough": "Brooklyn" }, "geometry": { "type": "Point", "coordinates": [ -73.943292616630501, 40.670837427320301 ] } },
{ "type": "Feature", "properties": { "FID": 89, "Name": "East Flatbush", "Stacked": 1, "AnnoLine1": "East Flatbush", "AnnoLine2": " ", "AnnoLine3": " ", "AnnoAngle": 0, "Borough": "Brooklyn" }, "geometry": { "type": "Point", "coordinates": [ -73.936103983697905, 40.641726011593697 ] } },
{ "type": "Feature", "properties": { "FID": 91, "Name": "Kensington", "Stacked": 1, "AnnoLine1": "Kensington", "AnnoLine2": " ", "AnnoLine3": " ", "AnnoAngle": 0, "Borough": "Brooklyn" }, "geometry": { "type": "Point", "coordinates": [ -73.980422541659294, 40.642390201488801 ] } },
{ "type": "Feature", "properties": { "FID": 93, "Name": "Windsor Terrace", "Stacked": 2, "AnnoLine1": "Windsor", "AnnoLine2": "Terrace", "AnnoLine3": " ", "AnnoAngle": 0, "Borough": "Brooklyn" }, "geometry": { "type": "Point", "coordinates": [ -73.980074841133501, 40.656954082107298 ] } },
{ "type": "Feature", "properties": { "FID": 95, "Name": "Prospect Heights", "Stacked": 2, "AnnoLine1": "Prospect", "AnnoLine2": "Heights", "AnnoLine3": " ", "AnnoAngle": 0, "Borough": "Brooklyn" }, "geometry": { "type": "Point", "coordinates": [ -73.964860675788302, 40.676830513043498 ] } },
{ "type": "Feature", "properties": { "FID": 97, "Name": "Brownsville", "Stacked": 1, "AnnoLine1": "Brownsville", "AnnoLine2": " ", "AnnoLine3": " ", "AnnoAngle": 0, "Borough": "Brooklyn" }, "geometry": { "type": "Point", "coordinates": [ -73.9102367766626, 40.663958193569599 ] } },
{ "type": "Feature", "properties": { "FID": 99, "Name": "Williamsburg", "Stacked": 1, "AnnoLine1": "Williamsburg", "AnnoLine2": " ", "AnnoLine3": " ", "AnnoAngle": 0, "Borough": "Brooklyn" }, "geometry": { "type": "Point", "coordinates": [ -73.958116725043396, 40.707152650413597 ] } },
{ "type": "Feature", "properties": { "FID": 101, "Name": "Bushwick", "Stacked": 1, "AnnoLine1": "Bushwick", "AnnoLine2": " ", "AnnoLine3": " ", "AnnoAngle": 0, "Borough": "Brooklyn" }, "geometry": { "type": "Point", "coordinates": [ -73.925259396636903, 40.698124366529498 ] } },
{ "type": "Feature", "properties": { "FID": 103, "Name": "Bedford Stuyvesant", "Stacked": 1, "AnnoLine1": "Bedford Stuyvesant", "AnnoLine2": " ", "AnnoLine3": " ", "AnnoAngle": 0, "Borough": "Brooklyn" }, "geometry": { "type": "Point", "coordinates": [ -73.941786313304902, 40.6872398613584 ] } },
{ "type": "Feature", "properties": { "FID": 105, "Name": "Brooklyn Heights", "Stacked": 2, "AnnoLine1": "Brooklyn", "AnnoLine2": "Heights", "AnnoLine3": " ", "AnnoAngle": 0, "Borough": "Brooklyn" }, "geometry": { "type": "Point", "coordinates": [ -73.993783698536205, 40.695871976234102 ] } },
{ "type": "Feature", "properties": { "FID": 108, "Name": "Cobble Hill", "Stacked": 2, "AnnoLine1": "Cobble", "AnnoLine2": "Hill", "AnnoLine3": " ", "AnnoAngle": 0, "Borough": "Brooklyn" }, "geometry": { "type": "Point", "coordinates": [ -73.998562836805903, 40.687927974270501 ] } },
{ "type": "Feature", "properties": { "FID": 111, "Name": "Carroll Gardens", "Stacked": 2, "AnnoLine1": "Carroll", "AnnoLine2": "Gardens", "AnnoLine3": " ", "AnnoAngle": 0, "Borough": "Brooklyn" }, "geometry": { "type": "Point", "coordinates": [ -73.994655171204101, 40.680548481551099 ] } },
{ "type": "Feature", "properties": { "FID": 114, "Name": "Red Hook", "Stacked": 2, "AnnoLine1": "Red", "AnnoLine2": "Hook", "AnnoLine3": " ", "AnnoAngle": 0, "Borough": "Brooklyn" }, "geometry": { "type": "Point", "coordinates": [ -74.012760423195701, 40.676261479250101 ] } },
{ "type": "Feature", "properties": { "FID": 117, "Name": "Gowanus", "Stacked": 1, "AnnoLine1": "Gowanus", "AnnoLine2": " ", "AnnoLine3": " ", "AnnoAngle": 0, "Borough": "Brooklyn" }, "geometry": { "type": "Point", "coordinates": [ -73.994442313909801, 40.673939392373001 ] } },
{ "type": "Feature", "properties": { "FID": 120, "Name": "Fort Greene", "Stacked": 2, "AnnoLine1": "Fort", "AnnoLine2": "Greene", "AnnoLine3": " ", "AnnoAngle": 0, "Borough": "Brooklyn" }, "geometry": { "type": "Point", "coordinates": [ -73.972907180135394, 40.688535512992701 ] } },
{ "type": "Feature", "properties": { "FID": 123, "Name": "Park Slope", "Stacked": 2, "AnnoLine1": "Park", "AnnoLine2": "Slope", "AnnoLine3": " ", "AnnoAngle": 0, "Borough": "Brooklyn" }, "geometry": { "type": "Point", "coordinates": [ -73.977051738631502, 40.672328772160903 ] } },
{ "type": "Feature", "properties": { "FID": 126, "Name": "Cypress Hills", "Stacked": 2, "AnnoLine1": "Cypress", "AnnoLine2": "Hills", "AnnoLine3": " ", "AnnoAngle": 0, "Borough": "Brooklyn" }, "geometry": { "type": "Point", "coordinates": [ -73.876617369813303, 40.6823992664063 ] } },
{ "type": "Feature", "properties": { "FID": 129, "Name": "East New York", "Stacked": 1, "AnnoLine1": "East New York", "AnnoLine2": " ", "AnnoLine3": " ", "AnnoAngle": 0, "Borough": "Brooklyn" }, "geometry": { "type": "Point", "coordinates": [ -73.880700044971604, 40.669933953222497 ] } },
{ "type": "Feature", "properties": { "FID": 132, "Name": "Starrett City", "Stacked": 2, "AnnoLine1": "Starrett", "AnnoLine2": "City", "AnnoLine3": " ", "AnnoAngle": 0, "Borough": "Brooklyn" }, "geometry": { "type": "Point", "coordinates": [ -73.879371104488499, 40.647597300344998 ] } },
{ "type": "Feature", "properties": { "FID": 135, "Name": "Canarsie", "Stacked": 1, "AnnoLine1": "Canarsie", "AnnoLine2": " ", "AnnoLine3": " ", "AnnoAngle": 0, "Borough": "Brooklyn" }, "geometry": { "type": "Point", "coordinates": [ -73.902094108372097, 40.635572572856702 ] } },
{ "type": "Feature", "properties": { "FID": 138, "Name": "Flatlands", "Stacked": 1, "AnnoLine1": "Flatlands", "AnnoLine2": " ", "AnnoLine3": " ", "AnnoAngle": 0, "Borough": "Brooklyn" }, "geometry": { "type": "Point", "coordinates": [ -73.929114445370899, 40.630454286691702 ] } },
{ "type": "Feature", "properties": { "FID": 141, "Name": "Mill Island", "Stacked": 2, "AnnoLine1": "Mill", "AnnoLine2": "Island", "AnnoLine3": " ", "AnnoAngle": 0, "Borough": "Brooklyn" }, "geometry": { "type": "Point", "coordinates": [ -73.9081871285521, 40.606344660612301 ] } },
{ "type": "Feature", "properties": { "FID": 144, "Name": "Manhattan Beach", "Stacked": 2, "AnnoLine1": "Manhattan", "AnnoLine2": "Beach", "AnnoLine3": " ", "AnnoAngle": 0, "Borough": "Brooklyn" }, "geometry": { "type": "Point", "coordinates": [ -73.943538649303605, 40.577921735192 ] } },
{ "type": "Feature", "properties": { "FID": 147, "Name": "Coney Island", "Stacked": 1, "AnnoLine1": "Coney Island", "AnnoLine2": " ", "AnnoLine3": " ", "AnnoAngle": 0, "Borough": "Brooklyn" }, "geometry": { "type": "Point", "coordinates": [ -73.988684392825604, 40.5743007945334 ] } },
{ "type": "Feature", "properties": { "FID": 150, "Name": "Bath Beach", "Stacked": 2, "AnnoLine1": "Bath", "AnnoLine2": "Beach", "AnnoLine3": " ", "AnnoAngle": 0, "Borough": "Brooklyn" }, "geometry": { "type": "Point", "coordinates": [ -73.9987536537827, 40.5995269372469 ] } },
{ "type": "Feature", "properties": { "FID": 152, "Name": "Remsen Village", "Stacked": 2, "AnnoLine1": "Remsen", "AnnoLine2": "Village", "AnnoLine3": " ", "AnnoAngle": 0, "Borough": "Brooklyn" }, "geometry": { "type": "Point", "coordinates": [ -73.916654736019694, 40.652125699418697 ] } },
{ "type": "Feature", "properties": { "FID": 153, "Name": "Borough Park", "Stacked": 2, "AnnoLine1": "Borough", "AnnoLine2": "Park", "AnnoLine3": " ", "AnnoAngle": 0, "Borough": "Brooklyn" }, "geometry": { "type": "Point", "coordinates": [ -73.990499669179698, 40.633138754074203 ] } },
{ "type": "Feature", "properties": { "FID": 155, "Name": "New Lots", "Stacked": 2, "AnnoLine1": "New", "AnnoLine2": "Lots", "AnnoLine3": " ", "AnnoAngle": 0, "Borough": "Brooklyn" }, "geometry": { "type": "Point", "coordinates": [ -73.8851191705741, 40.6627525305083 ] } },
{ "type": "Feature", "properties": { "FID": 156, "Name": "Dyker Heights", "Stacked": 2, "AnnoLine1": "Dyker", "AnnoLine2": "Heights", "AnnoLine3": " ", "AnnoAngle": 0, "Borough": "Brooklyn" }, "geometry": { "type": "Point", "coordinates": [ -74.0193152034728, 40.6192276952981 ] } },
{ "type": "Feature", "properties": { "FID": 158, "Name": "Paerdegat Basin", "Stacked": 2, "AnnoLine1": "Paerdegat", "AnnoLine2": "Basin", "AnnoLine3": " ", "AnnoAngle": 0, "Borough": "Brooklyn" }, "geometry": { "type": "Point", "coordinates": [ -73.902336153363194, 40.6313257944364 ] } },
{ "type": "Feature", "properties": { "FID": 160, "Name": "Gerritsen Beach", "Stacked": 2, "AnnoLine1": "Gerritsen", "AnnoLine2": "Beach", "AnnoLine3": " ", "AnnoAngle": 0, "Borough": "Brooklyn" }, "geometry": { "type": "Point", "coordinates": [ -73.930103123774003, 40.590856669019701 ] } },
{ "type": "Feature", "properties": { "FID": 161, "Name": "Mill Basin", "Stacked": 2, "AnnoLine1": "Mill", "AnnoLine2": "Basin", "AnnoLine3": " ", "AnnoAngle": 0, "Borough": "Brooklyn" }, "geometry": { "type": "Point", "coordinates": [ -73.915155329090595, 40.615982480201303 ] } },
{ "type": "Feature", "properties": { "FID": 164, "Name": "Marine Park", "Stacked": 1, "AnnoLine1": "Marine Park", "AnnoLine2": " ", "AnnoLine3": " ", "AnnoAngle": 0, "Borough": "Brooklyn" }, "geometry": { "type": "Point", "coordinates": [ -73.931345459479203, 40.609756018684202 ] } },
{ "type": "Feature", "properties": { "FID": 167, "Name": "Clinton Hill", "Stacked": 2, "AnnoLine1": "Clinton", "AnnoLine2": "Hill", "AnnoLine3": " ", "AnnoAngle": 0, "Borough": "Brooklyn" }, "geometry": { "type": "Point", "coordinates": [ -73.9678444972715, 40.693237675783799 ] } },
{ "type": "Feature", "properties": { "FID": 170, "Name": "Sea Gate", "Stacked": 2, "AnnoLine1": "Sea", "AnnoLine2": "Gate", "AnnoLine3": " ", "AnnoAngle": 0, "Borough": "Brooklyn" }, "geometry": { "type": "Point", "coordinates": [ -74.007874552874796, 40.5763836084584 ] } },
{ "type": "Feature", "properties": { "FID": 173, "Name": "Downtown", "Stacked": 1, "AnnoLine1": "Downtown", "AnnoLine2": " ", "AnnoLine3": " ", "AnnoAngle": 0, "Borough": "Brooklyn" }, "geometry": { "type": "Point", "coordinates": [ -73.983464814275706, 40.690852273985499 ] } },
{ "type": "Feature", "properties": { "FID": 176, "Name": "Boerum Hill", "Stacked": 2, "AnnoLine1": "Boerum", "AnnoLine2": "Hill", "AnnoLine3": " ", "AnnoAngle": 0, "Borough": "Brooklyn" }, "geometry": { "type": "Point", "coordinates": [ -73.983749680901795, 40.685691163956797 ] } },
{ "type": "Feature", "properties": { "FID": 179, "Name": "Prospect Lefferts Gardens", "Stacked": 3, "AnnoLine1": "Prospect", "AnnoLine2": "Lefferts", "AnnoLine3": "Gardens", "AnnoAngle": 0, "Borough": "Brooklyn" }, "geometry": { "type": "Point", "coordinates": [ -73.954900099639602, 40.658428264996097 ] } },
{ "type": "Feature", "properties": { "FID": 182, "Name": "Ocean Hill", "Stacked": 2, "AnnoLine1": "Ocean", "AnnoLine2": "Hill", "AnnoLine3": " ", "AnnoAngle": 0, "Borough": "Brooklyn" }, "geometry": { "type": "Point", "coordinates": [ -73.913069734548102, 40.6784108077048 ] } },
{ "type": "Feature", "properties": { "FID": 184, "Name": "City Line", "Stacked": 2, "AnnoLine1": "City", "AnnoLine2": "Line", "AnnoLine3": " ", "AnnoAngle": 0, "Borough": "Brooklyn" }, "geometry": { "type": "Point", "coordinates": [ -73.867977383056598, 40.678578211790402 ] } },
{ "type": "Feature", "properties": { "FID": 187, "Name": "Bergen Beach", "Stacked": 2, "AnnoLine1": "Bergen", "AnnoLine2": "Beach", "AnnoLine3": " ", "AnnoAngle": 0, "Borough": "Brooklyn" }, "geometry": { "type": "Point", "coordinates": [ -73.898557744527807, 40.615157791447501 ] } },
{ "type": "Feature", "properties": { "FID": 190, "Name": "Midwood", "Stacked": 1, "AnnoLine1": "Midwood", "AnnoLine2": " ", "AnnoLine3": " ", "AnnoAngle": 0, "Borough": "Brooklyn" }, "geometry": { "type": "Point", "coordinates": [ -73.957596662646594, 40.6256041396854 ] } },
{ "type": "Feature", "properties": { "FID": 193, "Name": "Prospect Park South", "Stacked": 2, "AnnoLine1": "Prospect", "AnnoLine2": "Park South", "AnnoLine3": " ", "AnnoAngle": 0, "Borough": "Brooklyn" }, "geometry": { "type": "Point", "coordinates": [ -73.962614597804404, 40.647016848201602 ] } },
{ "type": "Feature", "properties": { "FID": 196, "Name": "Georgetown", "Stacked": 1, "AnnoLine1": "Georgetown", "AnnoLine2": " ", "AnnoLine3": " ", "AnnoAngle": 0, "Borough": "Brooklyn" }, "geometry": { "type": "Point", "coordinates": [ -73.916076253867402, 40.623853486876698 ] } },
{ "type": "Feature", "properties": { "FID": 199, "Name": "East Williamsburg", "Stacked": 2, "AnnoLine1": "East", "AnnoLine2": "Williamsburg", "AnnoLine3": " ", "AnnoAngle": 0, "Borough": "Brooklyn" }, "geometry": { "type": "Point", "coordinates": [ -73.938859579440503, 40.708500668324803 ] } },
{ "type": "Feature", "properties": { "FID": 202, "Name": "North Side", "Stacked": 1, "AnnoLine1": "North Side", "AnnoLine2": " ", "AnnoLine3": " ", "AnnoAngle": 0, "Borough": "Brooklyn" }, "geometry": { "type": "Point", "coordinates": [ -73.958810009396302, 40.714831164983899 ] } },
{ "type": "Feature", "properties": { "FID": 205, "Name": "South Side", "Stacked": 1, "AnnoLine1": "South Side", "AnnoLine2": " ", "AnnoLine3": " ", "AnnoAngle": 0, "Borough": "Brooklyn" }, "geometry": { "type": "Point", "coordinates": [ -73.958002384555598, 40.710869730354297 ] } },
{ "type": "Feature", "properties": { "FID": 208, "Name": "Ocean Parkway", "Stacked": 2, "AnnoLine1": "Ocean", "AnnoLine2": "Parkway", "AnnoLine3": " ", "AnnoAngle": 0, "Borough": "Brooklyn" }, "geometry": { "type": "Point", "coordinates": [ -73.9683682107962, 40.613068004827099 ] } },
{ "type": "Feature", "properties": { "FID": 210, "Name": "Fulton Ferry", "Stacked": 2, "AnnoLine1": "Fulton", "AnnoLine2": "Ferry", "AnnoLine3": " ", "AnnoAngle": 0, "Borough": "Brooklyn" }, "geometry": { "type": "Point", "coordinates": [ -73.995508963457397, 40.703289345833802 ] } },
{ "type": "Feature", "properties": { "FID": 211, "Name": "Fort Hamilton", "Stacked": 2, "AnnoLine1": "Fort", "AnnoLine2": "Hamilton", "AnnoLine3": " ", "AnnoAngle": 0, "Borough": "Brooklyn" }, "geometry": { "type": "Point", "coordinates": [ -74.031980596275702, 40.614776363199702 ] } },
{ "type": "Feature", "properties": { "FID": 213, "Name": "Vinegar Hill", "Stacked": 2, "AnnoLine1": "Vinegar", "AnnoLine2": "Hill", "AnnoLine3": " ", "AnnoAngle": 0, "Borough": "Brooklyn" }, "geometry": { "type": "Point", "coordinates": [ -73.981117475891807, 40.703329754244699 ] } },
{ "type": "Feature", "properties": { "FID": 216, "Name": "Weeksville", "Stacked": 1, "AnnoLine1": "Weeksville", "AnnoLine2": " ", "AnnoLine3": " ", "AnnoAngle": 0, "Borough": "Brooklyn" }, "geometry": { "type": "Point", "coordinates": [ -73.930532510236503, 40.675048116672002 ] } },
{ "type": "Feature", "properties": { "FID": 219, "Name": "Broadway Junction", "Stacked": 2, "AnnoLine1": "Broadway", "AnnoLine2": "Junction", "AnnoLine3": " ", "AnnoAngle": 0, "Borough": "Brooklyn" }, "geometry": { "type": "Point", "coordinates": [ -73.903318262044806, 40.677869300838999 ] } },
{ "type": "Feature", "properties": { "FID": 221, "Name": "Dumbo", "Stacked": 1, "AnnoLine1": "Dumbo", "AnnoLine2": " ", "AnnoLine3": " ", "AnnoAngle": 0, "Borough": "Brooklyn" }, "geometry": { "type": "Point", "coordinates": [ -73.988754249854594, 40.703184583346797 ] } },
{ "type": "Feature", "properties": { "FID": 231, "Name": "Homecrest", "Stacked": 1, "AnnoLine1": "Homecrest", "AnnoLine2": " ", "AnnoLine3": " ", "AnnoAngle": 0, "Borough": "Brooklyn" }, "geometry": { "type": "Point", "coordinates": [ -73.959186020915695, 40.598533330749298 ] } },
{ "type": "Feature", "properties": { "FID": 242, "Name": "Highland Park", "Stacked": 2, "AnnoLine1": "Highland", "AnnoLine2": "Park", "AnnoLine3": " ", "AnnoAngle": 0, "Borough": "Brooklyn" }, "geometry": { "type": "Point", "coordinates": [ -73.890347119485995, 40.682007188925603 ] } },
{ "type": "Feature", "properties": { "FID": 244, "Name": "Madison", "Stacked": 1, "AnnoLine1": "Madison", "AnnoLine2": " ", "AnnoLine3": " ", "AnnoAngle": 0, "Borough": "Brooklyn" }, "geometry": { "type": "Point", "coordinates": [ -73.948416577123893, 40.609385939258701 ] } },
{ "type": "Feature", "properties": { "FID": 251, "Name": "Erasmus", "Stacked": 1, "AnnoLine1": "Erasmus", "AnnoLine2": " ", "AnnoLine3": " ", "AnnoAngle": 0, "Borough": "Brooklyn" }, "geometry": { "type": "Point", "coordinates": [ -73.948178525220001, 40.6469343120907 ] } }
]
}
